<?xml version="1.0" encoding="UTF-8"?><gpx version="1.1" creator="JPX - https://github.com/jenetics/jpx" xmlns="http://www.topografix.com/GPX/1/1"><wpt lat="57.47416130000001" lon="-4.193455399999999"><name>Raigmore Hospital</name><desc>Status: OPERATIONAL; Rating: 3.8; Opening Hours: [OpeningHours: openNow null</desc></wpt><wpt lat="57.4748836" lon="-4.225158899999999"><name>Highland Psychology Services</name><desc>Status: OPERATIONAL; Rating: 0.0; Opening Hours: Unknown</desc></wpt><wpt lat="57.477255" lon="-4.195166700000001"><name>The Phoenix Centre</name><desc>Status: OPERATIONAL; Rating: 0.0; Opening Hours: [OpeningHours: null</desc></wpt><wpt lat="57.47588050000001" lon="-4.1927393"><name>Clinical Research Facility</name><desc>Status: OPERATIONAL; Rating: 0.0; Opening Hours: Unknown</desc></wpt><wpt lat="57.4790096" lon="-4.217237799999999"><name>Crown Medical Practice</name><desc>Status: OPERATIONAL; Rating: 4.5; Opening Hours: [OpeningHours: null</desc></wpt><wpt lat="57.47100099999999" lon="-4.221099000000001"><name>Southside Road Surgery</name><desc>Status: OPERATIONAL; Rating: 4.4; Opening Hours: [OpeningHours: null</desc></wpt><wpt lat="57.477773" lon="-4.224721"><name>New craigs hospital</name><desc>Status: OPERATIONAL; Rating: 0.0; Opening Hours: Unknown</desc></wpt><wpt lat="57.47257460000002" lon="-4.229404"><name>The Royal Northern Infirmary</name><desc>Status: OPERATIONAL; Rating: 5.0; Opening Hours: Unknown</desc></wpt><wpt lat="57.48434720000001" lon="-4.238574799999999"><name>Aonach Mhor Community Unit</name><desc>Status: OPERATIONAL; Rating: 0.0; Opening Hours: Unknown</desc></wpt><wpt lat="57.4743445" lon="-4.198491499999999"><name>N H S Substance Misuse Service</name><desc>Status: OPERATIONAL; Rating: 0.0; Opening Hours: Unknown</desc></wpt><wpt lat="57.47609850000001" lon="-4.1972824"><name>Raigmore hospital accommodation</name><desc>Status: OPERATIONAL; Rating: 0.0; Opening Hours: Unknown</desc></wpt><wpt lat="57.4727293" lon="-4.256692"><name>Kinmylies Medical Practice</name><desc>Status: OPERATIONAL; Rating: 3.7; Opening Hours: [OpeningHours: null</desc></wpt><wpt lat="57.4695377" lon="-4.269683100000001"><name>New Craigs Psychiatric Hospital</name><desc>Status: OPERATIONAL; Rating: 4.0; Opening Hours: [OpeningHours: openNow null</desc></wpt><wpt lat="57.47351800000001" lon="-4.190767399999999"><name>NHS Highland</name><desc>Status: OPERATIONAL; Rating: 3.5; Opening Hours: [OpeningHours: null</desc></wpt><wpt lat="57.4697298" lon="-4.268981600000001"><name>eHealth Facilitators Team (NHS Highland) IV3 8NP</name><desc>Status: OPERATIONAL; Rating: 0.0; Opening Hours: [OpeningHours: null</desc></wpt><wpt lat="57.4739651" lon="-4.190923299999999"><name>RAIGMORE HOSPITAL STORES</name><desc>Status: OPERATIONAL; Rating: 0.0; Opening Hours: Unknown</desc></wpt><wpt lat="57.45219609999999" lon="-4.1759358"><name>mikan tsumikis nurses office</name><desc>Status: OPERATIONAL; Rating: 5.0; Opening Hours: [OpeningHours: openNow null</desc></wpt><wpt lat="57.5936107" lon="-4.416184299999999"><name>Highland Rheumatology Unit</name><desc>Status: OPERATIONAL; Rating: 5.0; Opening Hours: Unknown</desc></wpt><wpt lat="57.5943103" lon="-4.417853099999999"><name>Ross Memorial Hospital</name><desc>Status: OPERATIONAL; Rating: 4.7; Opening Hours: [OpeningHours: null</desc></wpt><wpt lat="57.5936107" lon="-4.416184299999999"><name>The Dental Clinic at the Ross Memorial Hospital</name><desc>Status: OPERATIONAL; Rating: 0.0; Opening Hours: Unknown</desc></wpt><wpt lat="58.58317659999999" lon="-3.538016"><name>Dunbar Hospital</name><desc>Status: OPERATIONAL; Rating: 5.0; Opening Hours: [OpeningHours: openNow null</desc></wpt><wpt lat="58.5838017" lon="-3.5391766"><name>Dunbar Hospital</name><desc>Status: OPERATIONAL; Rating: 5.0; Opening Hours: [OpeningHours: openNow null</desc></wpt><wpt lat="58.58354439999999" lon="-3.5392532"><name>Dunbar Hospital</name><desc>Status: OPERATIONAL; Rating: 0.0; Opening Hours: Unknown</desc></wpt><wpt lat="58.6410043" lon="-3.0771076"><name>Scottish Fire and Rescue Service, Fire Station</name><desc>Status: OPERATIONAL; Rating: 0.0; Opening Hours: Unknown</desc></wpt><wpt lat="58.44141279999999" lon="-3.0888038"><name>N H S Highland</name><desc>Status: OPERATIONAL; Rating: 0.0; Opening Hours: Unknown</desc></wpt><wpt lat="58.44119699999999" lon="-3.095654499999999"><name>Caithness General Hospital</name><desc>Status: OPERATIONAL; Rating: 4.0; Opening Hours: [OpeningHours: openNow null</desc></wpt><wpt lat="58.4607484" lon="-3.0855602"><name>Caithness A&amp;E</name><desc>Status: OPERATIONAL; Rating: 0.0; Opening Hours: Unknown</desc></wpt><wpt lat="58.43296150000001" lon="-3.097678900000001"><name>Town &amp; County Hospital</name><desc>Status: OPERATIONAL; Rating: 5.0; Opening Hours: [OpeningHours: openNow null</desc></wpt><wpt lat="57.97313240000002" lon="-3.9875046"><name>Lawson Memorial Hospital</name><desc>Status: OPERATIONAL; Rating: 4.7; Opening Hours: [OpeningHours: null</desc></wpt><wpt lat="57.80867" lon="-4.0671005"><name>Tain &amp; District Medical Group</name><desc>Status: OPERATIONAL; Rating: 4.3; Opening Hours: [OpeningHours: null</desc></wpt><wpt lat="57.6810128" lon="-4.0366843"><name>Cromarty Medical Practice</name><desc>Status: OPERATIONAL; Rating: 4.0; Opening Hours: [OpeningHours: null</desc></wpt><wpt lat="57.69498129999999" lon="-4.248310199999999"><name>Alness &amp; Invergordon Medical Group</name><desc>Status: OPERATIONAL; Rating: 0.0; Opening Hours: Unknown</desc></wpt></gpx>